{"type":"FeatureCollection","name":"name_to_define","features":[{"type":"Feature","properties":{"Associazione":"Volontari Senza Frontiere ODV - Pescara; ","Rischio":"Alluvione ","Data":"23\/09\/2022 10:40-10:40; ","Regione":"Abruzzo","Comune":"Altino","Indirizzo":"VIA MANLIO ROMOLI, Altino (CH)","Link":"www.anpas.org "},"geometry":{"type":"Point","coordinates":[14.330134784194,42.102899185405]}},{"type":"Feature","properties":{"Associazione":"CROCE VERDE AVEZZANO SOCCORSO ONLUS; ","Rischi":"Alluvione Terremoto  Maremoto ","Date":"29\/10\/2022 09:00-20:00; 30\/10\/2022 09:00-20:00; 31\/10\/2022 09:00-20:00; ","Regione":"Abruzzo","Comune":"Catignano","Indirizzo":"via indirizzo piazza, Catignano (PE)","Link":"web facebook instagram twitter"},"geometry":{"type":"Point","coordinates":[13.955036626226,42.348017428502]}},{"type":"Feature","properties":{"Associazione":"Associazione DPC Test; ","Rischi":"Alluvione Terremoto  Maremoto ","Date":"28\/08\/2023 09:00-12:00; 29\/08\/2023 09:00-12:00; 29\/08\/2023 15:00-18:00; 30\/08\/2023 09:00-18:00; ","Regione":"Lazio","Comune":"Roma","Indirizzo":"via Ulpiano 11, Roma (RM)","Link":"https:\/\/www.cimafoundation.org https:\/\/www.facebook.com https:\/\/www.instagram.it https:\/\/www.twitter.com"},"geometry":{"type":"Point","coordinates":[12.471871551219,41.90418230792]}},{"type":"Feature","properties":{"Associazioni":"A.I.B. PROTEZIONE CIVILE FINALE LIGURE ODV; AIB NOLI PROTEZIONE CIVILE ODV; ","Rischio":"Alluvione ","Date":"26\/09\/2022 16:00-18:00; 27\/09\/2022 16:00-18:00; 28\/09\/2022 16:00-18:00; 29\/09\/2022 16:00-18:00; 30\/09\/2022 16:00-18:00; ","Regione":"Liguria","Comune":"Finale Ligure","Indirizzo":"Piazza San Giovanni Battista, Finale Ligure (SV)","Link":"weburl "},"geometry":{"type":"Point","coordinates":[8.3452393296519,44.169848120319]}},{"type":"Feature","properties":{"Associazione":"A.I.B. PROTEZIONE CIVILE FINALE LIGURE ODV; ","Rischi":"Alluvione Terremoto  Maremoto ","Data":"30\/09\/2022 18:00-20:00; ","Regione":"Liguria","Comune":"Vado Ligure","Indirizzo":"via Queirolo, Vado Ligure (SV)","Link":"https:\/\/gestionaleinr.it "},"geometry":{"type":"Point","coordinates":[8.4351521394404,44.269156267774]}}]}